{
"type": "FeatureCollection",
"name": "hospitals_diy_ext",
"crs": { "type": "name", "properties": { "name": "urn:ogc:def:crs:OGC:1.3:CRS84" } },
"features": [
{ "type": "Feature", "properties": { "name": "Rumah Sakit Ibnu Sina", "addr:full": null, "addr:city": null, "addr:district": null, "operator": null, "phone": null, "emergency": "yes", "healthcare": null, "amenity": "hospital" }, "geometry": { "type": "Point", "coordinates": [ 110.2017639, -7.5086024 ] } },
{ "type": "Feature", "properties": { "name": "RSI Cawas", "addr:full": null, "addr:city": null, "addr:district": null, "operator": null, "phone": null, "emergency": "yes", "healthcare": "hospital", "amenity": "hospital" }, "geometry": { "type": "Point", "coordinates": [ 110.6978572, -7.7732831 ] } },
{ "type": "Feature", "properties": { "name": "PKU Muhammadiyah Cawas", "addr:full": null, "addr:city": null, "addr:district": null, "operator": null, "phone": null, "emergency": null, "healthcare": "hospital", "amenity": "hospital" }, "geometry": { "type": "Point", "coordinates": [ 110.6938553, -7.7577467 ] } },
{ "type": "Feature", "properties": { "name": "RS Mitra Pedan", "addr:full": null, "addr:city": null, "addr:district": null, "operator": null, "phone": null, "emergency": null, "healthcare": null, "amenity": "hospital" }, "geometry": { "type": "Point", "coordinates": [ 110.703738, -7.6905872 ] } },
{ "type": "Feature", "properties": { "name": "RSKB Diponegoro 21", "addr:full": null, "addr:city": null, "addr:district": null, "operator": null, "phone": null, "emergency": null, "healthcare": null, "amenity": "hospital" }, "geometry": { "type": "Point", "coordinates": [ 110.6145117, -7.7017244 ] } },
{ "type": "Feature", "properties": { "name": "Puskesmas Piyungan", "addr:full": null, "addr:city": null, "addr:district": null, "operator": null, "phone": null, "emergency": "yes", "healthcare": null, "amenity": "hospital" }, "geometry": { "type": "Point", "coordinates": [ 110.4487055, -7.8285417 ] } },
{ "type": "Feature", "properties": { "name": "Poliklinik Desa", "addr:full": null, "addr:city": "Klaten", "addr:district": null, "operator": null, "phone": null, "emergency": null, "healthcare": null, "amenity": "hospital" }, "geometry": { "type": "Point", "coordinates": [ 110.6119075, -7.7875274 ] } },
{ "type": "Feature", "properties": { "name": "Klinik Adhiwarga PKBI DIY", "addr:full": null, "addr:city": "Yogyakarta", "addr:district": null, "operator": null, "phone": "+62 274 586767", "emergency": "no", "healthcare": "hospital", "amenity": "hospital" }, "geometry": { "type": "Point", "coordinates": [ 110.3570675, -7.7851411 ] } },
{ "type": "Feature", "properties": { "name": "Rahma Husada", "addr:full": null, "addr:city": null, "addr:district": null, "operator": null, "phone": null, "emergency": null, "healthcare": null, "amenity": "hospital" }, "geometry": { "type": "Point", "coordinates": [ 110.3460526, -7.9318813 ] } },
{ "type": "Feature", "properties": { "name": "Klinik Bidan Kita (Birth clinic)", "addr:full": null, "addr:city": "Klaten", "addr:district": null, "operator": null, "phone": null, "emergency": null, "healthcare": null, "amenity": "hospital" }, "geometry": { "type": "Point", "coordinates": [ 110.599591, -7.7048286 ] } },
{ "type": "Feature", "properties": { "name": "Puskesmas Pembantu Glodogan", "addr:full": null, "addr:city": null, "addr:district": null, "operator": null, "phone": null, "emergency": null, "healthcare": null, "amenity": "hospital" }, "geometry": { "type": "Point", "coordinates": [ 110.5930219, -7.7424894 ] } },
{ "type": "Feature", "properties": { "name": "Puskesmas Girimulyo 2", "addr:full": null, "addr:city": null, "addr:district": null, "operator": null, "phone": null, "emergency": null, "healthcare": null, "amenity": "hospital" }, "geometry": { "type": "Point", "coordinates": [ 110.1459484, -7.7442477 ] } },
{ "type": "Feature", "properties": { "name": "Puskesmas Galur II", "addr:full": null, "addr:city": null, "addr:district": null, "operator": null, "phone": null, "emergency": null, "healthcare": null, "amenity": "hospital" }, "geometry": { "type": "Point", "coordinates": [ 110.2245003, -7.9471928 ] } },
{ "type": "Feature", "properties": { "name": "RS Rajawali Citra", "addr:full": null, "addr:city": null, "addr:district": null, "operator": null, "phone": null, "emergency": null, "healthcare": null, "amenity": "hospital" }, "geometry": { "type": "Point", "coordinates": [ 110.4102422, -7.8483302 ] } },
{ "type": "Feature", "properties": { "name": "apotek kimia farma", "addr:full": null, "addr:city": null, "addr:district": null, "operator": null, "phone": null, "emergency": null, "healthcare": "hospital", "amenity": "hospital" }, "geometry": { "type": "Point", "coordinates": [ 110.373712, -7.7444637 ] } },
{ "type": "Feature", "properties": { "name": "condong catur apotik", "addr:full": null, "addr:city": null, "addr:district": null, "operator": null, "phone": null, "emergency": null, "healthcare": null, "amenity": "hospital" }, "geometry": { "type": "Point", "coordinates": [ 110.4100586, -7.7601905 ] } },
{ "type": "Feature", "properties": { "name": null, "addr:full": null, "addr:city": null, "addr:district": null, "operator": null, "phone": null, "emergency": null, "healthcare": null, "amenity": "hospital" }, "geometry": { "type": "Point", "coordinates": [ 110.6969357, -7.6273917 ] } },
{ "type": "Feature", "properties": { "name": null, "addr:full": null, "addr:city": null, "addr:district": null, "operator": null, "phone": null, "emergency": null, "healthcare": null, "amenity": "hospital" }, "geometry": { "type": "Point", "coordinates": [ 110.700909, -7.6148792 ] } },
{ "type": "Feature", "properties": { "name": "Puskesmas Giripurwo", "addr:full": null, "addr:city": null, "addr:district": null, "operator": null, "phone": null, "emergency": null, "healthcare": "hospital", "amenity": "hospital" }, "geometry": { "type": "Point", "coordinates": [ 110.4022389, -8.0321951 ] } },
{ "type": "Feature", "properties": { "name": "Apotek Jongkang", "addr:full": null, "addr:city": null, "addr:district": null, "operator": null, "phone": null, "emergency": null, "healthcare": "hospital", "amenity": "hospital" }, "geometry": { "type": "Point", "coordinates": [ 110.3722805, -7.7482207 ] } },
{ "type": "Feature", "properties": { "name": "Rumah Sakit Siloam Yogyakarta", "addr:full": "Jalan Laksda Adisucipto No.32-34, Demangan, Kec. Gondokusuman, Kota Yogyakarta, Daerah Istimewa Yogyakarta 55221", "addr:city": "yogyakarta", "addr:district": null, "operator": null, "phone": null, "emergency": null, "healthcare": "hospital", "amenity": "hospital" }, "geometry": { "type": "Point", "coordinates": [ 110.3908476, -7.7833722 ] } },
{ "type": "Feature", "properties": { "name": "Puskesmas Pedan", "addr:full": null, "addr:city": "Pedan", "addr:district": null, "operator": "Dinas Kesehatan Kab. Klaten", "phone": null, "emergency": "yes", "healthcare": "hospital", "amenity": "hospital" }, "geometry": { "type": "Point", "coordinates": [ 110.69967, -7.6917581 ] } },
{ "type": "Feature", "properties": { "name": "RS Nurrohmah", "addr:full": null, "addr:city": null, "addr:district": null, "operator": null, "phone": null, "emergency": null, "healthcare": "hospital", "amenity": "hospital" }, "geometry": { "type": "Point", "coordinates": [ 110.5614765, -7.9224175 ] } },
{ "type": "Feature", "properties": { "name": "Health Architecture Center", "addr:full": null, "addr:city": null, "addr:district": null, "operator": null, "phone": null, "emergency": null, "healthcare": "hospital", "amenity": "hospital" }, "geometry": { "type": "Point", "coordinates": [ 110.3320585, -7.7677372 ] } },
{ "type": "Feature", "properties": { "name": "Rumah perawat homecare", "addr:full": null, "addr:city": "magelang", "addr:district": null, "operator": "Vebryana kusuma wardhani", "phone": null, "emergency": "no", "healthcare": "hospital", "amenity": "hospital" }, "geometry": { "type": "Point", "coordinates": [ 110.2325843, -7.4332897 ] } },
{ "type": "Feature", "properties": { "name": "RSU Pelita Husada", "addr:full": null, "addr:city": null, "addr:district": null, "operator": null, "phone": null, "emergency": null, "healthcare": null, "amenity": "hospital" }, "geometry": { "type": "Point", "coordinates": [ 110.6320452, -7.9891432 ] } },
{ "type": "Feature", "properties": { "name": "Rumah Sakit Jiwa (RSJ) Prov. Soerojo", "addr:full": null, "addr:city": null, "addr:district": null, "operator": null, "phone": null, "emergency": null, "healthcare": "hospital", "amenity": "hospital" }, "geometry": { "type": "Point", "coordinates": [ 110.2257344, -7.441428 ] } },
{ "type": "Feature", "properties": { "name": "RSI Kota Magelang", "addr:full": null, "addr:city": null, "addr:district": null, "operator": null, "phone": null, "emergency": null, "healthcare": "hospital", "amenity": "hospital" }, "geometry": { "type": "Point", "coordinates": [ 110.2214813, -7.4528898 ] } },
{ "type": "Feature", "properties": { "name": "Rumah Sakit Bersalin Budi Rahayu Magelang", "addr:full": null, "addr:city": null, "addr:district": null, "operator": null, "phone": null, "emergency": null, "healthcare": "hospital", "amenity": "hospital" }, "geometry": { "type": "Point", "coordinates": [ 110.2246116, -7.4643429 ] } },
{ "type": "Feature", "properties": { "name": "RSU Blondo", "addr:full": null, "addr:city": null, "addr:district": null, "operator": null, "phone": null, "emergency": null, "healthcare": "hospital", "amenity": "hospital" }, "geometry": { "type": "Point", "coordinates": [ 110.2345205, -7.5360608 ] } },
{ "type": "Feature", "properties": { "name": "RSU Syubanul Wathon", "addr:full": null, "addr:city": null, "addr:district": null, "operator": null, "phone": null, "emergency": null, "healthcare": "hospital", "amenity": "hospital" }, "geometry": { "type": "Point", "coordinates": [ 110.2577575, -7.4648933 ] } },
{ "type": "Feature", "properties": { "name": null, "addr:full": null, "addr:city": null, "addr:district": null, "operator": null, "phone": null, "emergency": null, "healthcare": null, "amenity": "hospital" }, "geometry": { "type": "Point", "coordinates": [ 110.6525232, -7.6768833 ] } },
{ "type": "Feature", "properties": { "name": "ICU RSUP Dr. Sardjito", "addr:full": null, "addr:city": null, "addr:district": null, "operator": null, "phone": null, "emergency": null, "healthcare": "hospital", "amenity": "hospital" }, "geometry": { "type": "Point", "coordinates": [ 110.3723069, -7.769233 ] } },
{ "type": "Feature", "properties": { "name": "Rumah Sakit Universitas Islam Indonesia", "addr:full": null, "addr:city": null, "addr:district": null, "operator": null, "phone": null, "emergency": null, "healthcare": "hospital", "amenity": "hospital" }, "geometry": { "type": "Point", "coordinates": [ 110.295898, -7.9091703 ] } },
{ "type": "Feature", "properties": { "name": "RSH IN CARE (Rumah Sehat Holistik) - Bekam Jogja", "addr:full": null, "addr:city": "Yogyakarta", "addr:district": null, "operator": "HIINCARE", "phone": "+6281211595471", "emergency": "yes", "healthcare": "hospital", "amenity": "hospital" }, "geometry": { "type": "Point", "coordinates": [ 110.3097744, -7.8387586 ] } },
{ "type": "Feature", "properties": { "name": null, "addr:full": null, "addr:city": null, "addr:district": null, "operator": null, "phone": null, "emergency": null, "healthcare": null, "amenity": "hospital" }, "geometry": { "type": "Point", "coordinates": [ 110.5178723, -7.751889 ] } },
{ "type": "Feature", "properties": { "name": "Morula IVF JIH", "addr:full": null, "addr:city": null, "addr:district": null, "operator": null, "phone": null, "emergency": null, "healthcare": "hospital", "amenity": "hospital" }, "geometry": { "type": "Point", "coordinates": [ 110.4044778, -7.7577948 ] } },
{ "type": "Feature", "properties": { "name": "Radiotherapy Center RS JIH", "addr:full": null, "addr:city": null, "addr:district": null, "operator": null, "phone": null, "emergency": null, "healthcare": "hospital", "amenity": "hospital" }, "geometry": { "type": "Point", "coordinates": [ 110.4043339, -7.7582079 ] } },
{ "type": "Feature", "properties": { "name": "grahita indonesia jogja", "addr:full": null, "addr:city": null, "addr:district": null, "operator": null, "phone": null, "emergency": null, "healthcare": "hospital", "amenity": "hospital" }, "geometry": { "type": "Point", "coordinates": [ 110.3937875, -7.7262356 ] } },
{ "type": "Feature", "properties": { "name": "PSIKOLOGI PARADIGMA", "addr:full": null, "addr:city": null, "addr:district": null, "operator": null, "phone": null, "emergency": null, "healthcare": "hospital", "amenity": "hospital" }, "geometry": { "type": "Point", "coordinates": [ 110.3431439, -7.8116781 ] } },
{ "type": "Feature", "properties": { "name": "Arkandina", "addr:full": null, "addr:city": null, "addr:district": null, "operator": null, "phone": null, "emergency": null, "healthcare": "hospital", "amenity": "hospital" }, "geometry": { "type": "Point", "coordinates": [ 110.4017351, -7.8405612 ] } },
{ "type": "Feature", "properties": { "name": "Lembaga Psikologi Terapan DELTA", "addr:full": null, "addr:city": null, "addr:district": null, "operator": null, "phone": null, "emergency": null, "healthcare": "hospital", "amenity": "hospital" }, "geometry": { "type": "Point", "coordinates": [ 110.3395166, -7.7633501 ] } },
{ "type": "Feature", "properties": { "name": "Praktik Psikolog Nadia", "addr:full": null, "addr:city": null, "addr:district": null, "operator": null, "phone": null, "emergency": null, "healthcare": "hospital", "amenity": "hospital" }, "geometry": { "type": "Point", "coordinates": [ 110.3222196, -7.7785173 ] } },
{ "type": "Feature", "properties": { "name": "Humaira Consulting (Konsultan Psikologi)", "addr:full": null, "addr:city": null, "addr:district": null, "operator": null, "phone": null, "emergency": null, "healthcare": "hospital", "amenity": "hospital" }, "geometry": { "type": "Point", "coordinates": [ 110.3201938, -7.8102559 ] } },
{ "type": "Feature", "properties": { "name": "ABHIPRAYA CENTER (Biro Psikologi Abhipraya)", "addr:full": null, "addr:city": null, "addr:district": null, "operator": null, "phone": null, "emergency": null, "healthcare": "hospital", "amenity": "hospital" }, "geometry": { "type": "Point", "coordinates": [ 110.5805011, -7.9493588 ] } },
{ "type": "Feature", "properties": { "name": "RUMAH NGOBROL BUNDA WENING", "addr:full": null, "addr:city": null, "addr:district": null, "operator": null, "phone": null, "emergency": null, "healthcare": "hospital", "amenity": "hospital" }, "geometry": { "type": "Point", "coordinates": [ 110.3895273, -7.8424234 ] } },
{ "type": "Feature", "properties": { "name": "Biro Konsultasi Psikologi PARIPURNA Yogyakarta", "addr:full": null, "addr:city": null, "addr:district": null, "operator": null, "phone": null, "emergency": null, "healthcare": "hospital", "amenity": "hospital" }, "geometry": { "type": "Point", "coordinates": [ 110.3062511, -7.7738367 ] } },
{ "type": "Feature", "properties": { "name": "Biro Psikologi Metamorfosa", "addr:full": null, "addr:city": null, "addr:district": null, "operator": null, "phone": null, "emergency": null, "healthcare": "hospital", "amenity": "hospital" }, "geometry": { "type": "Point", "coordinates": [ 110.3298078, -7.8024702 ] } },
{ "type": "Feature", "properties": { "name": "NMM Konsultan Psikologi Kulon Progo", "addr:full": null, "addr:city": null, "addr:district": null, "operator": null, "phone": null, "emergency": null, "healthcare": "hospital", "amenity": "hospital" }, "geometry": { "type": "Point", "coordinates": [ 110.1742826, -7.8670008 ] } },
{ "type": "Feature", "properties": { "name": "PUSKESMAS BANGUNTAPAN", "addr:full": null, "addr:city": null, "addr:district": null, "operator": null, "phone": null, "emergency": null, "healthcare": "hospital", "amenity": "hospital" }, "geometry": { "type": "Point", "coordinates": [ 110.413987, -7.8291876 ] } },
{ "type": "Feature", "properties": { "name": "Rumah Sakit Khusus Bedah (RSKB) Sinduadi", "addr:full": null, "addr:city": null, "addr:district": null, "operator": null, "phone": null, "emergency": null, "healthcare": "hospital", "amenity": "hospital" }, "geometry": { "type": "Point", "coordinates": [ 110.3633677, -7.7573565 ] } },
{ "type": "Feature", "properties": { "name": "DKT", "addr:full": null, "addr:city": null, "addr:district": null, "operator": "Gilang", "phone": null, "emergency": null, "healthcare": "hospital", "amenity": "hospital" }, "geometry": { "type": "Point", "coordinates": [ 110.3769516, -7.7856374 ] } },
{ "type": "Feature", "properties": { "name": "Rumah Sakit Panti Rahayu", "addr:full": null, "addr:city": null, "addr:district": null, "operator": null, "phone": null, "emergency": null, "healthcare": "hospital", "amenity": "hospital" }, "geometry": { "type": "Point", "coordinates": [ 110.6580992, -7.956385 ] } },
{ "type": "Feature", "properties": { "name": "Gedung Stella Maris RS Panti Rahayu", "addr:full": null, "addr:city": null, "addr:district": null, "operator": null, "phone": null, "emergency": null, "healthcare": "hospital", "amenity": "hospital" }, "geometry": { "type": "Point", "coordinates": [ 110.6577434, -7.9558531 ] } },
{ "type": "Feature", "properties": { "name": "RS Yoga Darma", "addr:full": "Dusun Prajenan", "addr:city": null, "addr:district": null, "operator": null, "phone": null, "emergency": null, "healthcare": null, "amenity": "hospital" }, "geometry": { "type": "Point", "coordinates": [ 110.221562553044521, -7.512663582089363 ] } },
{ "type": "Feature", "properties": { "name": "RS Elisabeth", "addr:full": "Jalan Ganjuran", "addr:city": null, "addr:district": null, "operator": null, "phone": null, "emergency": null, "healthcare": "hospital", "amenity": "hospital" }, "geometry": { "type": "Point", "coordinates": [ 110.318696959152234, -7.925658230730451 ] } },
{ "type": "Feature", "properties": { "name": "Pukesmas Juwiring", "addr:full": null, "addr:city": null, "addr:district": null, "operator": null, "phone": null, "emergency": null, "healthcare": "hospital", "amenity": "hospital" }, "geometry": { "type": "Point", "coordinates": [ 110.749395057117965, -7.664727087644813 ] } },
{ "type": "Feature", "properties": { "name": "RSU PKU Muhammadiyah Pedan", "addr:full": null, "addr:city": null, "addr:district": null, "operator": null, "phone": null, "emergency": null, "healthcare": "hospital", "amenity": "hospital" }, "geometry": { "type": "Point", "coordinates": [ 110.70614446028722, -7.695320178404477 ] } },
{ "type": "Feature", "properties": { "name": "Rumah Sakit Gigi Dan Mulut Dr.Soedomo", "addr:full": null, "addr:city": null, "addr:district": null, "operator": null, "phone": null, "emergency": null, "healthcare": "hospital", "amenity": "hospital" }, "geometry": { "type": "Point", "coordinates": [ 110.373996368617171, -7.770555130520167 ] } },
{ "type": "Feature", "properties": { "name": "Rumah Sakit Khusus Puri Nirmala", "addr:full": "Jalan Jayaningprangan", "addr:city": null, "addr:district": null, "operator": null, "phone": null, "emergency": null, "healthcare": null, "amenity": "hospital" }, "geometry": { "type": "Point", "coordinates": [ 110.376905905290258, -7.800873703381238 ] } },
{ "type": "Feature", "properties": { "name": "RS Jogja", "addr:full": "Jalan Wirosaban No.1", "addr:city": "Yogyakarta", "addr:district": null, "operator": null, "phone": null, "emergency": null, "healthcare": null, "amenity": "hospital" }, "geometry": { "type": "Point", "coordinates": [ 110.378154477519345, -7.825939663275275 ] } },
{ "type": "Feature", "properties": { "name": "Rumah Sakit Umum Veteran Patmasuri", "addr:full": "Jl. Kyai Haji Ali Maksum Krapyak", "addr:city": null, "addr:district": null, "operator": null, "phone": null, "emergency": null, "healthcare": null, "amenity": "hospital" }, "geometry": { "type": "Point", "coordinates": [ 110.359942106366873, -7.830000326859269 ] } },
{ "type": "Feature", "properties": { "name": "RS PKU Muhammadiyah", "addr:full": "Jalan K.H. Ahmad Dahlan No. 20", "addr:city": null, "addr:district": null, "operator": null, "phone": null, "emergency": null, "healthcare": "hospital", "amenity": "hospital" }, "geometry": { "type": "Point", "coordinates": [ 110.362365222789492, -7.800668443918856 ] } },
{ "type": "Feature", "properties": { "name": "RS THT Dr. Pomo", "addr:full": null, "addr:city": null, "addr:district": null, "operator": null, "phone": null, "emergency": null, "healthcare": null, "amenity": "hospital" }, "geometry": { "type": "Point", "coordinates": [ 110.368567871023387, -7.808227944920242 ] } },
{ "type": "Feature", "properties": { "name": null, "addr:full": null, "addr:city": null, "addr:district": null, "operator": null, "phone": null, "emergency": null, "healthcare": null, "amenity": "hospital" }, "geometry": { "type": "Point", "coordinates": [ 110.288979219448422, -7.600376017122886 ] } },
{ "type": "Feature", "properties": { "name": null, "addr:full": null, "addr:city": null, "addr:district": null, "operator": null, "phone": null, "emergency": null, "healthcare": null, "amenity": "hospital" }, "geometry": { "type": "Point", "coordinates": [ 110.29925135, -7.55814855 ] } },
{ "type": "Feature", "properties": { "name": "Fasilitas Kesehatan", "addr:full": null, "addr:city": null, "addr:district": null, "operator": null, "phone": null, "emergency": null, "healthcare": null, "amenity": "hospital" }, "geometry": { "type": "Point", "coordinates": [ 110.268346305510988, -7.582219079308659 ] } },
{ "type": "Feature", "properties": { "name": "Puskesmas", "addr:full": null, "addr:city": null, "addr:district": null, "operator": null, "phone": null, "emergency": null, "healthcare": null, "amenity": "hospital" }, "geometry": { "type": "Point", "coordinates": [ 110.26977467098358, -7.576649405346795 ] } },
{ "type": "Feature", "properties": { "name": "Tempat Bersalin", "addr:full": null, "addr:city": null, "addr:district": null, "operator": null, "phone": null, "emergency": null, "healthcare": null, "amenity": "hospital" }, "geometry": { "type": "Point", "coordinates": [ 110.279314348005769, -7.569652082089701 ] } },
{ "type": "Feature", "properties": { "name": null, "addr:full": null, "addr:city": null, "addr:district": null, "operator": null, "phone": null, "emergency": null, "healthcare": null, "amenity": "hospital" }, "geometry": { "type": "Point", "coordinates": [ 110.284544212975163, -7.559467877863189 ] } },
{ "type": "Feature", "properties": { "name": null, "addr:full": null, "addr:city": null, "addr:district": null, "operator": null, "phone": null, "emergency": null, "healthcare": null, "amenity": "hospital" }, "geometry": { "type": "Point", "coordinates": [ 110.2855541, -7.5513399 ] } },
{ "type": "Feature", "properties": { "name": null, "addr:full": null, "addr:city": null, "addr:district": null, "operator": null, "phone": null, "emergency": null, "healthcare": null, "amenity": "hospital" }, "geometry": { "type": "Point", "coordinates": [ 110.28382776973784, -7.560510801691177 ] } },
{ "type": "Feature", "properties": { "name": "puskesmas pembantu blongkeng", "addr:full": null, "addr:city": null, "addr:district": null, "operator": null, "phone": null, "emergency": null, "healthcare": null, "amenity": "hospital" }, "geometry": { "type": "Point", "coordinates": [ 110.255621780395103, -7.635248584993152 ] } },
{ "type": "Feature", "properties": { "name": "Rumah Sakit Harapan", "addr:full": null, "addr:city": null, "addr:district": null, "operator": null, "phone": null, "emergency": null, "healthcare": null, "amenity": "hospital" }, "geometry": { "type": "Point", "coordinates": [ 110.212155259742559, -7.486678613013545 ] } },
{ "type": "Feature", "properties": { "name": "RS Panti Rini", "addr:full": "Jl. Jogja - Solo", "addr:city": null, "addr:district": null, "operator": null, "phone": null, "emergency": "yes", "healthcare": "hospital", "amenity": "hospital" }, "geometry": { "type": "Point", "coordinates": [ 110.466517291742591, -7.77167023857028 ] } },
{ "type": "Feature", "properties": { "name": "Puskesmas Kaliangkrik", "addr:full": null, "addr:city": null, "addr:district": null, "operator": null, "phone": null, "emergency": null, "healthcare": null, "amenity": "hospital" }, "geometry": { "type": "Point", "coordinates": [ 110.113693688705354, -7.463798863080469 ] } },
{ "type": "Feature", "properties": { "name": "RSUD Tidar", "addr:full": null, "addr:city": "Magelang", "addr:district": null, "operator": null, "phone": null, "emergency": "yes", "healthcare": "hospital", "amenity": "hospital" }, "geometry": { "type": "Point", "coordinates": [ 110.218156366578953, -7.484938592635896 ] } },
{ "type": "Feature", "properties": { "name": "Rumah Sakit Akademik UGM", "addr:full": null, "addr:city": "Sleman", "addr:district": null, "operator": null, "phone": "+62 274 4530404", "emergency": "yes", "healthcare": "hospital", "amenity": "hospital" }, "geometry": { "type": "Point", "coordinates": [ 110.350419557327683, -7.743161134656765 ] } },
{ "type": "Feature", "properties": { "name": "Puskesmas Pengasih 1", "addr:full": null, "addr:city": null, "addr:district": null, "operator": null, "phone": null, "emergency": null, "healthcare": null, "amenity": "hospital" }, "geometry": { "type": "Point", "coordinates": [ 110.164065622012558, -7.831379523941307 ] } },
{ "type": "Feature", "properties": { "name": "Rumah Sakit Bethesda Lempuyangwangi", "addr:full": "Jalan Hayam Wuruk No. 6 Yogyakarta", "addr:city": "Yogyakarta", "addr:district": null, "operator": null, "phone": null, "emergency": null, "healthcare": "hospital", "amenity": "hospital" }, "geometry": { "type": "Point", "coordinates": [ 110.373061980082142, -7.796443065778346 ] } },
{ "type": "Feature", "properties": { "name": null, "addr:full": null, "addr:city": null, "addr:district": null, "operator": null, "phone": null, "emergency": null, "healthcare": null, "amenity": "hospital" }, "geometry": { "type": "Point", "coordinates": [ 110.460833680135252, -7.592051180135251 ] } },
{ "type": "Feature", "properties": { "name": "Puskesmas Pembantu", "addr:full": "PAGER JURANG, KEPUH HARJO", "addr:city": null, "addr:district": null, "operator": null, "phone": null, "emergency": null, "healthcare": null, "amenity": "hospital" }, "geometry": { "type": "Point", "coordinates": [ 110.452087381497577, -7.624982684721695 ] } },
{ "type": "Feature", "properties": { "name": "Puskesmas Pembantu Desa Umbulharjo", "addr:full": "Karangeneng, Umbulharjo", "addr:city": null, "addr:district": null, "operator": null, "phone": null, "emergency": null, "healthcare": null, "amenity": "hospital" }, "geometry": { "type": "Point", "coordinates": [ 110.432858407980532, -7.625752682059795 ] } },
{ "type": "Feature", "properties": { "name": "Rumah Sakit Panti Rapih", "addr:full": "Jalan Cik Di Tiro No 30", "addr:city": "Yogyakarta", "addr:district": null, "operator": null, "phone": "+62274514014", "emergency": "yes", "healthcare": "hospital", "amenity": "hospital" }, "geometry": { "type": "Point", "coordinates": [ 110.377529799687565, -7.777037000488769 ] } },
{ "type": "Feature", "properties": { "name": "Rumah Sakit Khusus Puri Nirmala", "addr:full": "Jalan Jayaningprangan", "addr:city": null, "addr:district": null, "operator": null, "phone": null, "emergency": null, "healthcare": null, "amenity": "hospital" }, "geometry": { "type": "Point", "coordinates": [ 110.377233274974543, -7.800923513510525 ] } },
{ "type": "Feature", "properties": { "name": "Puskesmas Kalikotes", "addr:full": null, "addr:city": null, "addr:district": null, "operator": null, "phone": null, "emergency": null, "healthcare": null, "amenity": "hospital" }, "geometry": { "type": "Point", "coordinates": [ 110.629494862869677, -7.704640261599617 ] } },
{ "type": "Feature", "properties": { "name": "ICC RSUP Dr. Sardjito", "addr:full": null, "addr:city": null, "addr:district": null, "operator": null, "phone": null, "emergency": null, "healthcare": "hospital", "amenity": "hospital" }, "geometry": { "type": "Point", "coordinates": [ 110.371451073834152, -7.770557112003409 ] } },
{ "type": "Feature", "properties": { "name": "Puskesmas Panjatan 2", "addr:full": null, "addr:city": null, "addr:district": null, "operator": null, "phone": null, "emergency": null, "healthcare": "hospital", "amenity": "hospital" }, "geometry": { "type": "Point", "coordinates": [ 110.134225641113986, -7.92567930081113 ] } },
{ "type": "Feature", "properties": { "name": "Gedung Pusat Jantung Terpadu", "addr:full": null, "addr:city": null, "addr:district": null, "operator": null, "phone": null, "emergency": null, "healthcare": "hospital", "amenity": "hospital" }, "geometry": { "type": "Point", "coordinates": [ 110.371851910387903, -7.76970114948633 ] } },
{ "type": "Feature", "properties": { "name": "Paviliun Cendrawasih RS Sardjito", "addr:full": null, "addr:city": null, "addr:district": null, "operator": null, "phone": null, "emergency": null, "healthcare": "hospital", "amenity": "hospital" }, "geometry": { "type": "Point", "coordinates": [ 110.371492858333795, -7.769288377733785 ] } },
{ "type": "Feature", "properties": { "name": "Rumah Sakit PKU Muhammadiyah Gamping", "addr:full": "Jalan Wates KM 5.5, Ambarketawang, Sleman", "addr:city": "Kabupaten Sleman", "addr:district": null, "operator": null, "phone": null, "emergency": null, "healthcare": null, "amenity": "hospital" }, "geometry": { "type": "Point", "coordinates": [ 110.31750277775707, -7.800536783696 ] } },
{ "type": "Feature", "properties": { "name": "Rumah Pengobatan Tradisional Dawasir", "addr:full": null, "addr:city": null, "addr:district": null, "operator": null, "phone": null, "emergency": null, "healthcare": null, "amenity": "hospital" }, "geometry": { "type": "Point", "coordinates": [ 110.41501625, -7.70049025 ] } },
{ "type": "Feature", "properties": { "name": "Rumah Sakit Hermina", "addr:full": "Jalan Selokan Mataram", "addr:city": null, "addr:district": null, "operator": null, "phone": null, "emergency": null, "healthcare": "hospital", "amenity": "hospital" }, "geometry": { "type": "Point", "coordinates": [ 110.432558095035844, -7.770057129395224 ] } },
{ "type": "Feature", "properties": { "name": "HI-LAB Laboratorium & Klinik", "addr:full": null, "addr:city": "Kota Yogyakarta", "addr:district": "Tegalrejo", "operator": "PT. HI-LAB Internasional", "phone": "+62 815-6605-658", "emergency": null, "healthcare": "laboratory;clinic;dentist", "amenity": "hospital" }, "geometry": { "type": "Point", "coordinates": [ 110.361402719132386, -7.77425541418653 ] } },
{ "type": "Feature", "properties": { "name": "RS PKU muhammadiyah Sleman", "addr:full": null, "addr:city": null, "addr:district": null, "operator": null, "phone": null, "emergency": null, "healthcare": "hospital", "amenity": "hospital" }, "geometry": { "type": "Point", "coordinates": [ 110.357975350140038, -7.709467766604031 ] } },
{ "type": "Feature", "properties": { "name": "Sub Puskesmas Mlati 2", "addr:full": null, "addr:city": null, "addr:district": null, "operator": null, "phone": null, "emergency": null, "healthcare": null, "amenity": "hospital" }, "geometry": { "type": "Point", "coordinates": [ 110.328595750000034, -7.7487015 ] } },
{ "type": "Feature", "properties": { "name": "RS PARU PARU", "addr:full": "KRINGINAN", "addr:city": null, "addr:district": null, "operator": null, "phone": null, "emergency": null, "healthcare": null, "amenity": "hospital" }, "geometry": { "type": "Point", "coordinates": [ 110.464385535966898, -7.773220156783716 ] } },
{ "type": "Feature", "properties": { "name": "RS PARU PARU", "addr:full": "KRINGINAN", "addr:city": null, "addr:district": null, "operator": null, "phone": null, "emergency": null, "healthcare": null, "amenity": "hospital" }, "geometry": { "type": "Point", "coordinates": [ 110.464622946284436, -7.773218073552534 ] } },
{ "type": "Feature", "properties": { "name": "RSU PKU Muhammadiyah", "addr:full": "Jalan Jendral Sudirman", "addr:city": null, "addr:district": null, "operator": null, "phone": null, "emergency": null, "healthcare": null, "amenity": "hospital" }, "geometry": { "type": "Point", "coordinates": [ 110.330355386392057, -7.88690648442746 ] } },
{ "type": "Feature", "properties": { "name": "RS Khusus Ibu dan Anak Adinda", "addr:full": "Jalan Soragan No.14, Soragan, Ngestiharjo, Kasihan, Bantul, Daerah Istimewa Yogyakarta 55184", "addr:city": "Bantul", "addr:district": null, "operator": "Private", "phone": null, "emergency": null, "healthcare": "hospital", "amenity": "hospital" }, "geometry": { "type": "Point", "coordinates": [ 110.348697007279256, -7.785441657939701 ] } },
{ "type": "Feature", "properties": { "name": "Rumah Sakit Bethesda", "addr:full": "Jalan Jendral Sudirman No 70 Kotabaru", "addr:city": "Kota Yogyakarta", "addr:district": null, "operator": null, "phone": "+62 274 586688", "emergency": null, "healthcare": "hospital", "amenity": "hospital" }, "geometry": { "type": "Point", "coordinates": [ 110.377439546673827, -7.783844971223802 ] } },
{ "type": "Feature", "properties": { "name": "Rumah Sakit Pratama", "addr:full": "Jalan Kolonel Sugiono No 98 Yogyakarta", "addr:city": null, "addr:district": null, "operator": null, "phone": null, "emergency": null, "healthcare": null, "amenity": "hospital" }, "geometry": { "type": "Point", "coordinates": [ 110.373797591510055, -7.815851382577351 ] } },
{ "type": "Feature", "properties": { "name": "RS Khusus Ibu dan Anak Kahyangan", "addr:full": "Jalan Tino Sidin No.390, Kadipiro, Baru, Kdipiro, Ngestiharjo, Kasihan, Bantul, Daerah Istimewa Yogyakarta 55184", "addr:city": null, "addr:district": null, "operator": null, "phone": null, "emergency": null, "healthcare": null, "amenity": "hospital" }, "geometry": { "type": "Point", "coordinates": [ 110.344963108239327, -7.798280528475829 ] } },
{ "type": "Feature", "properties": { "name": "Puskesmas Salaman 1", "addr:full": null, "addr:city": null, "addr:district": null, "operator": null, "phone": null, "emergency": null, "healthcare": null, "amenity": "hospital" }, "geometry": { "type": "Point", "coordinates": [ 110.140463199477296, -7.580898957609504 ] } },
{ "type": "Feature", "properties": { "name": "RS Terpadu Penyandang Disabilitas", "addr:full": null, "addr:city": "Srihardono", "addr:district": null, "operator": null, "phone": "+62 274 6464177", "emergency": "no", "healthcare": "hospital", "amenity": "hospital" }, "geometry": { "type": "Point", "coordinates": [ 110.344575625744596, -7.958444635022118 ] } },
{ "type": "Feature", "properties": { "name": "Rumah Sakit Khusus Paru Respira", "addr:full": "Jalan Panembahan Senopati", "addr:city": null, "addr:district": null, "operator": null, "phone": null, "emergency": null, "healthcare": "hospital", "amenity": "hospital" }, "geometry": { "type": "Point", "coordinates": [ 110.320254169066658, -7.905655146422422 ] } },
{ "type": "Feature", "properties": { "name": "Puskesmas Pengasih 2", "addr:full": null, "addr:city": null, "addr:district": null, "operator": null, "phone": null, "emergency": null, "healthcare": null, "amenity": "hospital" }, "geometry": { "type": "Point", "coordinates": [ 110.175117191957156, -7.850423365622477 ] } },
{ "type": "Feature", "properties": { "name": "Rumah Sakit Bhayangkara", "addr:full": "Jalan Solo KM 14 Yogyakarta", "addr:city": null, "addr:district": null, "operator": null, "phone": null, "emergency": null, "healthcare": "hospital", "amenity": "hospital" }, "geometry": { "type": "Point", "coordinates": [ 110.471599735931335, -7.76620912270085 ] } },
{ "type": "Feature", "properties": { "name": "Biro Psikologi Laksita Educare Jogja", "addr:full": null, "addr:city": "Bantul", "addr:district": null, "operator": null, "phone": null, "emergency": null, "healthcare": "hospital", "amenity": "hospital" }, "geometry": { "type": "Point", "coordinates": [ 110.259450738412426, -7.803735230318253 ] } },
{ "type": "Feature", "properties": { "name": "RSKIA Permata Bunda", "addr:full": null, "addr:city": null, "addr:district": null, "operator": null, "phone": null, "emergency": null, "healthcare": "hospital", "amenity": "hospital" }, "geometry": { "type": "Point", "coordinates": [ 110.39972445, -7.82067235 ] } },
{ "type": "Feature", "properties": { "name": "RSKIA PKU Muhammadiyah Kotagede", "addr:full": "Jl. Kemasan No.30, Purbayan, Kotagede, Kota Yogyakarta, Daerah Istimewa Yogyakarta 55173", "addr:city": null, "addr:district": null, "operator": null, "phone": null, "emergency": null, "healthcare": "hospital", "amenity": "hospital" }, "geometry": { "type": "Point", "coordinates": [ 110.400752553167237, -7.822922877958963 ] } },
{ "type": "Feature", "properties": { "name": "Puskesmas Giripurwo", "addr:full": null, "addr:city": null, "addr:district": null, "operator": null, "phone": null, "emergency": null, "healthcare": null, "amenity": "hospital" }, "geometry": { "type": "Point", "coordinates": [ 110.402216273723795, -8.032237029818868 ] } },
{ "type": "Feature", "properties": { "name": "Puskesmas Kerkopan", "addr:full": null, "addr:city": null, "addr:district": null, "operator": "Kemenkes", "phone": null, "emergency": null, "healthcare": null, "amenity": "hospital" }, "geometry": { "type": "Point", "coordinates": [ 110.215511149999969, -7.4784852 ] } },
{ "type": "Feature", "properties": { "name": "Rumah Sakit Umum Lestari Raharja", "addr:full": null, "addr:city": "Magelang", "addr:district": null, "operator": null, "phone": null, "emergency": null, "healthcare": "hospital", "amenity": "hospital" }, "geometry": { "type": "Point", "coordinates": [ 110.216337726956183, -7.47912696054247 ] } },
{ "type": "Feature", "properties": { "name": "RSJ Prof. Dr. Soerojo", "addr:full": null, "addr:city": null, "addr:district": null, "operator": null, "phone": null, "emergency": null, "healthcare": "hospital", "amenity": "hospital" }, "geometry": { "type": "Point", "coordinates": [ 110.224639074249225, -7.440822762230096 ] } },
{ "type": "Feature", "properties": { "name": "RSUD Wonosari", "addr:full": null, "addr:city": "Wonosari", "addr:district": null, "operator": null, "phone": null, "emergency": null, "healthcare": "hospital", "amenity": "hospital" }, "geometry": { "type": "Point", "coordinates": [ 110.603990373244017, -7.96188111740794 ] } },
{ "type": "Feature", "properties": { "name": "Ruang Rawat Inap RSUD Tidar", "addr:full": null, "addr:city": "Magelang", "addr:district": null, "operator": null, "phone": null, "emergency": null, "healthcare": null, "amenity": "hospital" }, "geometry": { "type": "Point", "coordinates": [ 110.224527316177671, -7.464285332728484 ] } },
{ "type": "Feature", "properties": { "name": "RSKIA Sadewa", "addr:full": "Jalan Babarsari Tb 16 no 18", "addr:city": null, "addr:district": null, "operator": null, "phone": null, "emergency": null, "healthcare": "hospital", "amenity": "hospital" }, "geometry": { "type": "Point", "coordinates": [ 110.415808892324193, -7.77111132166689 ] } },
{ "type": "Feature", "properties": { "name": "RSU Gramedika", "addr:full": "jalan raya besi jangka no.10 ngaglik", "addr:city": null, "addr:district": null, "operator": null, "phone": null, "emergency": null, "healthcare": null, "amenity": "hospital" }, "geometry": { "type": "Point", "coordinates": [ 110.41698585, -7.7014093 ] } },
{ "type": "Feature", "properties": { "name": "Rumah Sakit Dharma", "addr:full": "Jl Wonosari Km 8,5Gandu,SendangTirto, Berbah,Sleman", "addr:city": null, "addr:district": null, "operator": null, "phone": null, "emergency": null, "healthcare": null, "amenity": "hospital" }, "geometry": { "type": "Point", "coordinates": [ 110.429955349999986, -7.82550615 ] } },
{ "type": "Feature", "properties": { "name": "RSUD PRAMBANAN", "addr:full": "DELEGAN, SUMBERHARJO", "addr:city": null, "addr:district": null, "operator": null, "phone": null, "emergency": null, "healthcare": null, "amenity": "hospital" }, "geometry": { "type": "Point", "coordinates": [ 110.4832671, -7.80471135 ] } },
{ "type": "Feature", "properties": { "name": "Rumah Sakit Khusus Bedah", "addr:full": "Jl. Ring Road Selatan", "addr:city": null, "addr:district": null, "operator": null, "phone": null, "emergency": null, "healthcare": null, "amenity": "hospital" }, "geometry": { "type": "Point", "coordinates": [ 110.3604094, -7.8341552 ] } },
{ "type": "Feature", "properties": { "name": "Klinik Laras Hati", "addr:full": null, "addr:city": null, "addr:district": null, "operator": null, "phone": null, "emergency": null, "healthcare": "hospital", "amenity": "hospital" }, "geometry": { "type": "Point", "coordinates": [ 110.261511930082463, -7.912108655393455 ] } },
{ "type": "Feature", "properties": { "name": "Puskesmas Pembantu Gulurejo", "addr:full": null, "addr:city": "Gulurejo", "addr:district": null, "operator": "Pemerintah", "phone": null, "emergency": "no", "healthcare": "hospital", "amenity": "hospital" }, "geometry": { "type": "Point", "coordinates": [ 110.255839585989207, -7.909574251555287 ] } },
{ "type": "Feature", "properties": { "name": "RSUD Sleman", "addr:full": null, "addr:city": null, "addr:district": null, "operator": "pemkab sleman", "phone": null, "emergency": null, "healthcare": "hospital", "amenity": "hospital" }, "geometry": { "type": "Point", "coordinates": [ 110.342351947231762, -7.687434084110118 ] } },
{ "type": "Feature", "properties": { "name": "RSKB SINDUADI", "addr:full": "Jalan Wijaya Kusuma No.310, Sleman", "addr:city": null, "addr:district": null, "operator": null, "phone": null, "emergency": null, "healthcare": "hospital", "amenity": "hospital" }, "geometry": { "type": "Point", "coordinates": [ 110.363368683994693, -7.757357411947819 ] } },
{ "type": "Feature", "properties": { "name": "Rumah Sakit Dr Soetarto", "addr:full": "Jalan Juadi No 19", "addr:city": null, "addr:district": null, "operator": null, "phone": null, "emergency": null, "healthcare": "hospital", "amenity": "hospital" }, "geometry": { "type": "Point", "coordinates": [ 110.376969258836979, -7.785608734691115 ] } },
{ "type": "Feature", "properties": { "name": "Rumah Sakit JIH", "addr:full": "Jalan Ring Road Utara", "addr:city": null, "addr:district": null, "operator": null, "phone": null, "emergency": null, "healthcare": "hospital", "amenity": "hospital" }, "geometry": { "type": "Point", "coordinates": [ 110.403504992411413, -7.757764642541023 ] } },
{ "type": "Feature", "properties": { "name": "Rumah Sakit Ludira Husada Tama", "addr:full": "Jalan Wiratama No. 4", "addr:city": null, "addr:district": null, "operator": null, "phone": null, "emergency": null, "healthcare": null, "amenity": "hospital" }, "geometry": { "type": "Point", "coordinates": [ 110.352903105118116, -7.792381079528479 ] } },
{ "type": "Feature", "properties": { "name": "Rumah Sakit Khusus Bedah Soedirman", "addr:full": "Jl. Sidobali Muja Muju UH II/402 Telp. 0274-589090 Yogyakarta 55165", "addr:city": null, "addr:district": null, "operator": null, "phone": null, "emergency": null, "healthcare": null, "amenity": "hospital" }, "geometry": { "type": "Point", "coordinates": [ 110.397523087070056, -7.800632282323408 ] } },
{ "type": "Feature", "properties": { "name": "Rumah Sakit Bhakti Ibu", "addr:full": "jalan golo no 33", "addr:city": null, "addr:district": null, "operator": null, "phone": null, "emergency": null, "healthcare": null, "amenity": "hospital" }, "geometry": { "type": "Point", "coordinates": [ 110.38163945, -7.81485005 ] } },
{ "type": "Feature", "properties": { "name": "Rumah Sakit Khusus Bedah An-Nur", "addr:full": "Jalan Colombo", "addr:city": null, "addr:district": null, "operator": null, "phone": null, "emergency": null, "healthcare": "hospital", "amenity": "hospital" }, "geometry": { "type": "Point", "coordinates": [ 110.386855213122374, -7.778101983265507 ] } },
{ "type": "Feature", "properties": { "name": "RS THT Dr. Pomo", "addr:full": null, "addr:city": null, "addr:district": null, "operator": null, "phone": null, "emergency": null, "healthcare": null, "amenity": "hospital" }, "geometry": { "type": "Point", "coordinates": [ 110.368636974518623, -7.808206536448214 ] } },
{ "type": "Feature", "properties": { "name": "RS THT Dr. Pomo", "addr:full": null, "addr:city": null, "addr:district": null, "operator": null, "phone": null, "emergency": null, "healthcare": null, "amenity": "hospital" }, "geometry": { "type": "Point", "coordinates": [ 110.368561312852719, -7.808531475133822 ] } },
{ "type": "Feature", "properties": { "name": "RS THT Dr. Pomo", "addr:full": null, "addr:city": null, "addr:district": null, "operator": null, "phone": null, "emergency": null, "healthcare": null, "amenity": "hospital" }, "geometry": { "type": "Point", "coordinates": [ 110.368524532444766, -7.808426184231921 ] } },
{ "type": "Feature", "properties": { "name": "RSKIA 45", "addr:full": "jl patangpuluhan no.35", "addr:city": null, "addr:district": null, "operator": null, "phone": null, "emergency": null, "healthcare": null, "amenity": "hospital" }, "geometry": { "type": "Point", "coordinates": [ 110.346073349999983, -7.80752145 ] } },
{ "type": "Feature", "properties": { "name": "Rumah Sakit Ibu dan Anak Fajar", "addr:full": null, "addr:city": null, "addr:district": null, "operator": null, "phone": null, "emergency": null, "healthcare": "hospital", "amenity": "hospital" }, "geometry": { "type": "Point", "coordinates": [ 110.349883010285509, -7.808587601548271 ] } },
{ "type": "Feature", "properties": { "name": "RSKIA Rachmi", "addr:full": null, "addr:city": null, "addr:district": null, "operator": null, "phone": null, "emergency": null, "healthcare": "hospital", "amenity": "hospital" }, "geometry": { "type": "Point", "coordinates": [ 110.35651784488617, -7.803620124629607 ] } },
{ "type": "Feature", "properties": { "name": "Rumah Sakit Universitas Ahmad Dahlan", "addr:full": "Karangsari, Wedomartani, Ngemplak, Sleman", "addr:city": null, "addr:district": null, "operator": null, "phone": null, "emergency": null, "healthcare": null, "amenity": "hospital" }, "geometry": { "type": "Point", "coordinates": [ 110.424867093994408, -7.747125775211371 ] } },
{ "type": "Feature", "properties": { "name": "Rumah Sakit Nur Hidayah", "addr:full": "Jalan Imogiri Timur KM. 11.5", "addr:city": null, "addr:district": null, "operator": null, "phone": null, "emergency": null, "healthcare": null, "amenity": "hospital" }, "geometry": { "type": "Point", "coordinates": [ 110.38798534271254, -7.886219767696911 ] } },
{ "type": "Feature", "properties": { "name": "RS Happy Land", "addr:full": "Jalan Ipda Tut harsono No 53 jl Melati wetan", "addr:city": null, "addr:district": null, "operator": null, "phone": null, "emergency": null, "healthcare": "hospital", "amenity": "hospital" }, "geometry": { "type": "Point", "coordinates": [ 110.392078435586114, -7.793990760281768 ] } },
{ "type": "Feature", "properties": { "name": "RSI Hidayatullah", "addr:full": "Jl.Veteran No.184, Pandeyan, Umbulharjo", "addr:city": null, "addr:district": null, "operator": null, "phone": null, "emergency": null, "healthcare": "hospital", "amenity": "hospital" }, "geometry": { "type": "Point", "coordinates": [ 110.387700586161628, -7.815061959581873 ] } },
{ "type": "Feature", "properties": { "name": "RSUD Panembahan Senopati", "addr:full": "Jalan Dr. Wahidin Sudiro Husodo, Area Sawah, Trirenggo, Kec. Bantul, Bantul, Daerah Istimewa Yogyakarta 55714", "addr:city": "Bantul", "addr:district": null, "operator": "Pemerintah Kabupaten Bantul", "phone": "+62 274 367386", "emergency": "yes", "healthcare": "hospital", "amenity": "hospital" }, "geometry": { "type": "Point", "coordinates": [ 110.338199166396507, -7.892411321852041 ] } },
{ "type": "Feature", "properties": { "name": "RSKIA Ummi Khasanah", "addr:full": "Jalan Pemuda", "addr:city": null, "addr:district": null, "operator": null, "phone": null, "emergency": null, "healthcare": null, "amenity": "hospital" }, "geometry": { "type": "Point", "coordinates": [ 110.330632233024375, -7.878553763718153 ] } },
{ "type": "Feature", "properties": { "name": "RSUP Dr. Sardjito", "addr:full": "Jalan Kesehatan No. 1, Sinduadi, Mlati, Senolowo, Sinduadi, Mlati, Kabupaten Sleman, Daerah Istimewa Yogyakarta 55281", "addr:city": "Sleman", "addr:district": null, "operator": null, "phone": null, "emergency": null, "healthcare": "hospital", "amenity": "hospital" }, "geometry": { "type": "Point", "coordinates": [ 110.372879870322038, -7.768179892427328 ] } },
{ "type": "Feature", "properties": { "name": "Rumah Sakit Umum Rachma Husada", "addr:full": "Jalan Parangtritis Km. 16, Patalan Jetis Bantul Yogyakarta", "addr:city": null, "addr:district": null, "operator": null, "phone": null, "emergency": null, "healthcare": null, "amenity": "hospital" }, "geometry": { "type": "Point", "coordinates": [ 110.345886049724683, -7.93212901410991 ] } },
{ "type": "Feature", "properties": { "name": "Rumah Sakit Umum Queen Latifa", "addr:full": "Jalan Ringroad Barat No.118, Mlangi, Nogotirto, Gamping, Kabupaten Sleman, Daerah Istimewa Yogyakarta 55294", "addr:city": null, "addr:district": null, "operator": null, "phone": null, "emergency": null, "healthcare": null, "amenity": "hospital" }, "geometry": { "type": "Point", "coordinates": [ 110.337044457195532, -7.762610641650538 ] } },
{ "type": "Feature", "properties": { "name": "RS Sakina Idaman", "addr:full": "Jalan Monjali No.106, Kutu Dukuh, Sinduadi, Mlati, Kabupaten Sleman, Daerah Istimewa Yogyakarta 55284", "addr:city": null, "addr:district": null, "operator": null, "phone": null, "emergency": null, "healthcare": "hospital", "amenity": "hospital" }, "geometry": { "type": "Point", "coordinates": [ 110.367819662361526, -7.767574061663847 ] } },
{ "type": "Feature", "properties": { "name": "Rumah Sakit Rajawali Citra", "addr:full": "jalan pleret, banguntapan", "addr:city": null, "addr:district": null, "operator": null, "phone": null, "emergency": null, "healthcare": null, "amenity": "hospital" }, "geometry": { "type": "Point", "coordinates": [ 110.410235949999986, -7.848608 ] } },
{ "type": "Feature", "properties": { "name": "Rumah Sakit Medika Respati", "addr:full": "Jalan Raya Tajem", "addr:city": null, "addr:district": null, "operator": null, "phone": null, "emergency": null, "healthcare": null, "amenity": "hospital" }, "geometry": { "type": "Point", "coordinates": [ 110.433789492514904, -7.74833664065895 ] } },
{ "type": "Feature", "properties": { "name": "RS Puri Husada", "addr:full": "jl palagan tentara pelajar", "addr:city": null, "addr:district": null, "operator": null, "phone": null, "emergency": null, "healthcare": null, "amenity": "hospital" }, "geometry": { "type": "Point", "coordinates": [ 110.386451823097289, -7.705810294290868 ] } },
{ "type": "Feature", "properties": { "name": "RSU PANTI BAKTININGSIH", "addr:full": "Klepu, Sendangmulyo, Minggir", "addr:city": null, "addr:district": null, "operator": null, "phone": null, "emergency": null, "healthcare": null, "amenity": "hospital" }, "geometry": { "type": "Point", "coordinates": [ 110.242364368482882, -7.755074245267277 ] } },
{ "type": "Feature", "properties": { "name": "Rumah Sakit Jiwa Grhasia", "addr:full": "jalan kaliurang km. 17", "addr:city": null, "addr:district": null, "operator": null, "phone": null, "emergency": null, "healthcare": null, "amenity": "hospital" }, "geometry": { "type": "Point", "coordinates": [ 110.421756393737795, -7.661871082862951 ] } },
{ "type": "Feature", "properties": { "name": "RS Panti Nugroho", "addr:full": "Jalan Kaliurang KM 17", "addr:city": null, "addr:district": null, "operator": null, "phone": null, "emergency": null, "healthcare": null, "amenity": "hospital" }, "geometry": { "type": "Point", "coordinates": [ 110.417151863741552, -7.668732773083401 ] } },
{ "type": "Feature", "properties": { "name": "Rumah Sakit At-Turots Al-Islamy", "addr:full": "Klaci I, Margoluwih, Seyegan, Sleman", "addr:city": null, "addr:district": null, "operator": null, "phone": null, "emergency": null, "healthcare": null, "amenity": "hospital" }, "geometry": { "type": "Point", "coordinates": [ 110.293920299999968, -7.75044985 ] } },
{ "type": "Feature", "properties": { "name": null, "addr:full": null, "addr:city": null, "addr:district": null, "operator": null, "phone": null, "emergency": null, "healthcare": "hospital", "amenity": "hospital" }, "geometry": { "type": "Point", "coordinates": [ 110.693934301723075, -7.757830056470052 ] } },
{ "type": "Feature", "properties": { "name": null, "addr:full": null, "addr:city": null, "addr:district": null, "operator": null, "phone": null, "emergency": null, "healthcare": "hospital", "amenity": "hospital" }, "geometry": { "type": "Point", "coordinates": [ 110.693721856235669, -7.757973569642617 ] } },
{ "type": "Feature", "properties": { "name": "RS Universitas Islam Indonesia", "addr:full": null, "addr:city": null, "addr:district": null, "operator": null, "phone": null, "emergency": null, "healthcare": "hospital", "amenity": "hospital" }, "geometry": { "type": "Point", "coordinates": [ 110.29591329534918, -7.909186822959438 ] } },
{ "type": "Feature", "properties": { "name": "RSUP Dr. Soeradji Tirtonegoro", "addr:full": "Jalan KRT Soeradji Tirtonegoro No.1, Dusun 1, Tegalyoso, Kec. Klaten Selatan", "addr:city": "Klaten", "addr:district": null, "operator": null, "phone": null, "emergency": "yes", "healthcare": "hospital", "amenity": "hospital" }, "geometry": { "type": "Point", "coordinates": [ 110.588270516909944, -7.714338519183022 ] } },
{ "type": "Feature", "properties": { "name": "RS Mata Dr. Yap", "addr:full": null, "addr:city": "Yogyakarta", "addr:district": null, "operator": null, "phone": null, "emergency": null, "healthcare": "hospital", "amenity": "hospital" }, "geometry": { "type": "Point", "coordinates": [ 110.37444256516342, -7.780577429124924 ] } },
{ "type": "Feature", "properties": { "name": "RSU Islam Klaten", "addr:full": "Jalan Klaten - Solo No.KM.4, Sidorejo, Belang Wetan, Kec. Klaten Utara, Kabupaten Klaten, Jawa Tengah", "addr:city": "Klaten", "addr:district": null, "operator": null, "phone": null, "emergency": null, "healthcare": null, "amenity": "hospital" }, "geometry": { "type": "Point", "coordinates": [ 110.634124425588624, -7.685265322248965 ] } },
{ "type": "Feature", "properties": { "name": "RSU Islam Klaten", "addr:full": "Jalan Klaten - Solo No.KM.4, Sidorejo, Belang Wetan, Kec. Klaten Utara, Kabupaten Klaten, Jawa Tengah", "addr:city": "Klaten", "addr:district": null, "operator": null, "phone": null, "emergency": null, "healthcare": null, "amenity": "hospital" }, "geometry": { "type": "Point", "coordinates": [ 110.634124425588624, -7.685265322248965 ] } },
{ "type": "Feature", "properties": { "name": "RSPAU dr. S. Hardjolukito", "addr:full": "Jalan Janti Yogyakarta, Lanud Adisutjipto, Jl. Ringroad Timur, Karang Janbe, Banguntapan, Kec. Banguntapan, Bantul, Daerah Istimewa Yogyakarta 55198", "addr:city": "Bantul", "addr:district": null, "operator": null, "phone": null, "emergency": null, "healthcare": "hospital", "amenity": "hospital" }, "geometry": { "type": "Point", "coordinates": [ 110.411636544277641, -7.797498433556155 ] } },
{ "type": "Feature", "properties": { "name": "RSUD Wates", "addr:full": null, "addr:city": "Wates, Kulon Progo, Daerah Istimewa Yogyakarta", "addr:district": null, "operator": null, "phone": "+62 274 773169", "emergency": null, "healthcare": "hospital", "amenity": "hospital" }, "geometry": { "type": "Point", "coordinates": [ 110.146992180476019, -7.860498205679264 ] } },
{ "type": "Feature", "properties": { "name": "Puskesmas Kokap II", "addr:full": null, "addr:city": null, "addr:district": null, "operator": "Puskesmas Kokap II", "phone": null, "emergency": null, "healthcare": "hospital", "amenity": "hospital" }, "geometry": { "type": "Point", "coordinates": [ 110.115123324808749, -7.799134846653701 ] } },
{ "type": "Feature", "properties": { "name": "RSUD Muntilan", "addr:full": null, "addr:city": "Magelang", "addr:district": null, "operator": null, "phone": null, "emergency": "yes", "healthcare": "hospital", "amenity": "hospital" }, "geometry": { "type": "Point", "coordinates": [ 110.291254757372258, -7.583336557258532 ] } },
{ "type": "Feature", "properties": { "name": "RST Dr. Soedjono", "addr:full": null, "addr:city": null, "addr:district": null, "operator": null, "phone": null, "emergency": null, "healthcare": null, "amenity": "hospital" }, "geometry": { "type": "Point", "coordinates": [ 110.225248847369457, -7.467651206233182 ] } },
{ "type": "Feature", "properties": { "name": "Rumah Sakit Cakra Husada Klaten", "addr:full": null, "addr:city": null, "addr:district": null, "operator": null, "phone": null, "emergency": null, "healthcare": "hospital", "amenity": "hospital" }, "geometry": { "type": "Point", "coordinates": [ 110.594178103948281, -7.709340129301791 ] } },
{ "type": "Feature", "properties": { "name": "RSIY PDHI", "addr:full": "jln jogja-solo", "addr:city": null, "addr:district": null, "operator": null, "phone": null, "emergency": null, "healthcare": "hospital", "amenity": "hospital" }, "geometry": { "type": "Point", "coordinates": [ 110.458545455438994, -7.775384913705762 ] } },
{ "type": "Feature", "properties": { "name": "Puskesmas Sentolo I", "addr:full": null, "addr:city": null, "addr:district": null, "operator": null, "phone": null, "emergency": null, "healthcare": null, "amenity": "hospital" }, "geometry": { "type": "Point", "coordinates": [ 110.219201848623541, -7.833165681312591 ] } },
{ "type": "Feature", "properties": { "name": "Puskesmas Karangdowo", "addr:full": null, "addr:city": null, "addr:district": null, "operator": null, "phone": null, "emergency": null, "healthcare": "hospital", "amenity": "hospital" }, "geometry": { "type": "Point", "coordinates": [ 110.737867591069218, -7.69592298106145 ] } },
{ "type": "Feature", "properties": { "name": "Rumah Sakit Condong Catur", "addr:full": null, "addr:city": null, "addr:district": null, "operator": null, "phone": null, "emergency": null, "healthcare": "hospital", "amenity": "hospital" }, "geometry": { "type": "Point", "coordinates": [ 110.405838334545493, -7.754268122664677 ] } },
{ "type": "Feature", "properties": { "name": "Rumah Sakit Permata Husada", "addr:full": null, "addr:city": null, "addr:district": null, "operator": null, "phone": null, "emergency": null, "healthcare": "hospital", "amenity": "hospital" }, "geometry": { "type": "Point", "coordinates": [ 110.408281170949252, -7.865745784877403 ] } },
{ "type": "Feature", "properties": { "name": "RSU Mitra Paramedika", "addr:full": null, "addr:city": null, "addr:district": null, "operator": null, "phone": null, "emergency": null, "healthcare": "hospital", "amenity": "hospital" }, "geometry": { "type": "Point", "coordinates": [ 110.44818593037985, -7.714069728349407 ] } },
{ "type": "Feature", "properties": { "name": "Puskesmas Karangdowo", "addr:full": null, "addr:city": null, "addr:district": null, "operator": null, "phone": null, "emergency": null, "healthcare": "hospital", "amenity": "hospital" }, "geometry": { "type": "Point", "coordinates": [ 110.737756437572529, -7.69568384990239 ] } },
{ "type": "Feature", "properties": { "name": "RSUD Bagas Waras", "addr:full": null, "addr:city": null, "addr:district": null, "operator": null, "phone": null, "emergency": null, "healthcare": "hospital", "amenity": "hospital" }, "geometry": { "type": "Point", "coordinates": [ 110.605892533658363, -7.728552670122361 ] } },
{ "type": "Feature", "properties": { "name": "Stroke Center RS Bethesda", "addr:full": null, "addr:city": null, "addr:district": null, "operator": "Yuni", "phone": null, "emergency": null, "healthcare": "hospital", "amenity": "hospital" }, "geometry": { "type": "Point", "coordinates": [ 110.378507411341161, -7.783509321973145 ] } }
]
}
